,Reporting_Entity,Facility_Name,State,Electricity_Production_GJ,Electricity_Production_MWh,Primary_Fuel,Year,Lat,Lng,Renewable
0,ACCIONA ENERGY OCEANIA PTY LTD,Gunning Wind Farm,NSW,"575,522","159,867",Wind,2020-2021,-34.6905625,149.4270092,True
1,ACCIONA ENERGY OCEANIA PTY LTD,Mt Gellibrand Wind Farm,VIC,"1,018,498","282,916",Wind,2020-2021,-38.2327778,143.7922222,True
2,ACCIONA ENERGY OCEANIA PTY LTD,Waubra Wind Farm,VIC,"2,339,624","649,896",Wind,2020-2021,-37.3946388,143.6386011,True
3,ADANI RENEWABLE ASSET HOLDINGS PTY LTD,Adani Rugby Run Solar Farm,QLD,"587,856","163,293",Solar,2020-2021,-22.1440625,147.9142556,True
4,AGL ENERGY LIMITED,Banimboola Hydro,VIC,"7,240","2,011",Hydro,2020-2021,-36.5343144,147.459344,True
5,AGL ENERGY LIMITED,Barker Inlet Power Station,SA,"1,391,597","386,555",Gas,2020-2021,-34.8043219,138.5249106,False
6,AGL ENERGY LIMITED,Bayswater Power Station,NSW,"51,517,714","14,310,476",Black Coal,2020-2021,-32.3925781,150.9490509,False
7,AGL ENERGY LIMITED,Bogong Power Station,VIC,"314,481","87,356",Hydro,2020-2021,-36.8057885,147.2281158,True
8,AGL ENERGY LIMITED,Broken Hill Solar Plant,NSW,"408,929","113,591",Solar,2020-2021,-31.985972,141.3929982,True
9,AGL ENERGY LIMITED,Copeton Hydro,NSW,"33,585","9,329",Hydro,2020-2021,-29.8466241,150.8866281,True
10,AGL ENERGY LIMITED,Dartmouth Hydro,VIC,"153,275","42,576",Hydro,2020-2021,-36.5324694,147.4961766,True
11,AGL ENERGY LIMITED,Eildon Hydro,VIC,"401,140","111,428",Hydro,2020-2021,-37.2345677,145.9089916,True
12,AGL ENERGY LIMITED,Glenbawn Hydro,NSW,123,34,Hydro,2020-2021,-32.1080329,150.985732,True
13,AGL ENERGY LIMITED,Hunter Valley Gas Turbines,NSW,0,0,Gas,2020-2021,-32.1932173,151.700565,False
14,AGL ENERGY LIMITED,Kwinana Swift Power Station,WA,"124,238","34,511",Gas,2020-2021,-32.2320792,115.7787256,False
15,AGL ENERGY LIMITED,Liddell Power Station,NSW,"26,305,616","7,307,116",Black Coal,2020-2021,-32.3715056,150.9773385,False
16,AGL ENERGY LIMITED,Loy Yang Power Station and Mine,VIC,"59,031,839","16,397,733",Brown Coal,2020-2021,-38.2537069,146.5756631,False
17,AGL ENERGY LIMITED,Macarthur Wind Farm,VIC,"2,641,871","733,853",Wind,2020-2021,-38.0490795,142.1915163,True
18,AGL ENERGY LIMITED,McKay Creek Hydro,VIC,"386,791","107,442",Hydro,2020-2021,45.5250549,-123.0049896,True
19,AGL ENERGY LIMITED,Nyngan Solar Plant,NSW,"840,121","233,367",Solar,2020-2021,-31.5662057,147.0707349,True
20,AGL ENERGY LIMITED,Oaklands Hill Wind Farm,VIC,"630,310","175,086",Wind,2020-2021,-37.683252,142.551115,True
21,AGL ENERGY LIMITED,Rubicon Hydro Scheme,VIC,0,0,Hydro,2020-2021,-37.3259849,145.8614196,True
22,AGL ENERGY LIMITED,Silverton Wind Farm,NSW,"2,826,436","785,121",Wind,2020-2021,-31.86094989999999,141.2963491,True
23,AGL ENERGY LIMITED,Torrens Island Power Station,SA,"6,008,329","1,668,980",Gas,2020-2021,-34.8065986,138.5231933,False
24,AGL ENERGY LIMITED,Wattle Point Wind Farm,SA,"950,951","264,153",Wind,2020-2021,-35.1117422,137.7212617,True
25,AGL ENERGY LIMITED,Yarrawonga Hydro,VIC,"156,774","43,548",Hydro,2020-2021,-36.0260723,146.0003241,True
26,AGL ENERGY LIMITED,Burrendong Hydro,NSW,"43,303","12,029",Hydro,2020-2021,-32.6801776,149.1386215,True
27,AGL ENERGY LIMITED,Pindari Hydro,NSW,0,0,Hydro,2020-2021,-31.2532183,146.921099,True
28,ALCOA AUSTRALIAN HOLDINGS PTY LTD,Alinta Pinjarra Generation Facility,WA,"5,739,815","1,594,393",Gas,2020-2021,-32.6462926,115.9464342,False
29,APT PIPELINES LIMITED,Badgingarra Solar Farm,WA,"108,451","30,125",Solar,2020-2021,-30.3988319,115.5547078,True
30,APT PIPELINES LIMITED,Badgingarra Wind Farm,WA,"1,701,835","472,732",Wind,2020-2021,-30.4100818,115.3200753,True
31,APT PIPELINES LIMITED,Daandine Power Station,QLD,"406,375","112,882",Coal Seam Methane,2020-2021,-27.0861935,150.9425679,False
32,APT PIPELINES LIMITED,Darling Downs Solar Farm,QLD,"755,182","209,773",Wind,2020-2021,-27.1212889,150.8943801,True
33,APT PIPELINES LIMITED,Diamantina Power Station,QLD,"6,884,574","1,912,382",Gas,2020-2021,-20.7830295,139.4829711,False
34,APT PIPELINES LIMITED,Emu Downs Solar Farm,WA,"173,545","48,207",Solar,2020-2021,-30.48468,115.415795,True
35,APT PIPELINES LIMITED,Emu Downs Wind Farm,WA,"883,949","245,541",Wind,2020-2021,-30.4756515,115.381241,True
36,ARROW ENERGY HOLDINGS PTY LTD,Braemar 2 Power Station,QLD,"1,475,610","409,892",Coal Seam Methane,2020-2021,-27.1107842,150.9054673,False
37,ATCO AUSTRALIA PTY LTD,Karratha Power Station,WA,"513,078","142,522",Gas,2020-2021,-20.7336955,116.8447057,False
38,BALD HILLS WF HOLDINGS PTY LTD,Bald Hills Wind Farm Pty Ltd,VIC,"1,228,860","341,350",Wind,2020-2021,-38.7478299,145.9494813,True
39,BEI WWF PTY LTD,Warradarge Wind Farm,WA,"1,797,588","499,330",Wind,2020-2021,-30.0578671,115.3296682,True
40,BEIJING JINGNENG CLEAN ENERGY (AUSTRALIA) HOLDING PTY LTD,Gullen Solar Pty Ltd,NSW,"67,807","18,835",Solar,2020-2021,-34.605567,149.4626469,True
41,BEIJING JINGNENG CLEAN ENERGY (AUSTRALIA) HOLDING PTY LTD,New Gullen Range Wind Farm Pty Ltd,NSW,"1,818,406","505,113",Wind,2020-2021,-31.2532183,146.921099,True
42,BEIJING JINGNENG CLEAN ENERGY (AUSTRALIA) HOLDING PTY LTD,Newtricity Developments Biala Pty Ltd,NSW,"311,838","86,622",Wind,2020-2021,-34.6217632,149.2364477,True
43,BHP GROUP LIMITED,Yarnima Power Station,WA,"2,691,050","747,514",Gas,2020-2021,-23.3435575,119.7109647,False
44,BLUEWATERS POWER 1 PTY LTD,Bluewaters Power 1,WA,"5,808,996","1,613,610",Black Coal,2020-2021,-33.3297691,116.2265472,False
45,BLUEWATERS POWER 2 PTY LTD,Bluewaters Power 2,WA,"6,083,427","1,689,841",Black Coal,2020-2021,-33.3297691,116.2265472,False
46,C S ENERGY LIMITED,Callide B Power Station,QLD,"11,317,007","3,143,613",Black Coal,2020-2021,-22.575197,144.0847926,False
47,C S ENERGY LIMITED,Callide C Power Station,QLD,"18,205,965","5,057,213",Black Coal,2020-2021,-24.2927187,150.4933758,False
48,C S ENERGY LIMITED,Kogan Creek Power Station,QLD,"18,428,566","5,119,046",Black Coal,2020-2021,-26.9146137,150.746994,False
49,CAPE BYRON MANAGEMENT PTY LTD,Broadwater Power Plant,NSW,"698,416","194,005",Bagasse,2020-2021,-29.0145838,153.4300366,True
50,CAPE BYRON MANAGEMENT PTY LTD,Condong Power Plant,NSW,"593,907","164,974",Bagasse,2020-2021,-28.3117883,153.4363815,True
51,CECEP WIND POWER AUSTRALIA HOLDING PTY LTD,White Rock Wind Farm Pty Ltd,NSW,"1,825,006","506,946",Wind,2020-2021,-29.7560103,151.5521958,True
52,CK WILLIAM AUSTRALIA HOLDINGS PTY LTD,Appin CSM Power Station,NSW,"899,023","249,729",Waste Coal Mine Gas,2020-2021,-34.200914,150.7874904,False
53,CK WILLIAM AUSTRALIA HOLDINGS PTY LTD,Ardyaloon Facility,WA,"7,351","2,042",Diesel,2020-2021,-16.4469782,123.0597129,False
54,CK WILLIAM AUSTRALIA HOLDINGS PTY LTD,Beagle Bay Facility,WA,"6,767","1,880",Diesel,2020-2021,-16.9830116,122.6651831,False
55,CK WILLIAM AUSTRALIA HOLDINGS PTY LTD,Belrose LFG Power Station,NSW,349,97,Landfill Gas,2020-2021,-33.72828990000001,151.2179132,True
56,CK WILLIAM AUSTRALIA HOLDINGS PTY LTD,Berwick LFG Power Station,VIC,"34,600","9,611",Landfill Gas,2020-2021,-38.0309443,145.3437469,True
57,CK WILLIAM AUSTRALIA HOLDINGS PTY LTD,Bidyadanga Facility,WA,"10,339","2,872",Diesel,2020-2021,-18.6844063,121.7777973,False
58,CK WILLIAM AUSTRALIA HOLDINGS PTY LTD,Broadmeadows LFG Power Station,VIC,"42,580","11,828",Landfill Gas,2020-2021,-37.6858788,144.9246674,True
59,CK WILLIAM AUSTRALIA HOLDINGS PTY LTD,Brooklyn LFG Power Station,VIC,"29,263","8,129",Landfill Gas,2020-2021,-37.8173492,144.8465361,True
60,CK WILLIAM AUSTRALIA HOLDINGS PTY LTD,Broome LNG Power Station,WA,"499,610","138,780",Gas,2020-2021,-17.96182,122.236998,False
61,CK WILLIAM AUSTRALIA HOLDINGS PTY LTD,Browns Plains LFG Power Station,QLD,"55,301","15,361",Landfill Gas,2020-2021,-27.6624358,153.0527734,True
62,CK WILLIAM AUSTRALIA HOLDINGS PTY LTD,Clayton LFG Power Station,VIC,"294,790","81,886",Landfill Gas,2020-2021,-36.9847807,143.3906074,True
63,CK WILLIAM AUSTRALIA HOLDINGS PTY LTD,Coober Pedy Facility,SA,"63,400","17,611",Wind,2020-2021,-29.013516,134.7544219,True
64,CK WILLIAM AUSTRALIA HOLDINGS PTY LTD,Cullerin Range Wind Farm,NSW,"250,956","69,710",Wind,2020-2021,-34.8180225,149.399069,True
65,CK WILLIAM AUSTRALIA HOLDINGS PTY LTD,Derby LNG Power Station,WA,"122,307","33,974",Gas,2020-2021,-17.309288,123.6401839,False
66,CK WILLIAM AUSTRALIA HOLDINGS PTY LTD,Djarindjin Facility,WA,"6,335","1,760",Diesel,2020-2021,-16.514329,122.895699,False
67,CK WILLIAM AUSTRALIA HOLDINGS PTY LTD,Eastern Creek LFG Power Station,NSW,"25,001","6,945",Landfill Gas,2020-2021,-33.8102184,150.85064,True
68,CK WILLIAM AUSTRALIA HOLDINGS PTY LTD,Fitzroy Crossing LNG Power Station,WA,"51,094","14,193",Gas,2020-2021,-18.19797,125.5670892,False
69,CK WILLIAM AUSTRALIA HOLDINGS PTY LTD,Gascoyne Facility,WA,"2,388",663,Diesel,2020-2021,-24.5453479,115.2837585,False
70,CK WILLIAM AUSTRALIA HOLDINGS PTY LTD,German Creek CMM Power Station,QLD,"1,024,971","284,714",Waste Coal Mine Gas,2020-2021,-25.47614107456473,152.8968730508393,False
71,CK WILLIAM AUSTRALIA HOLDINGS PTY LTD,Glennies Creek WCMG Power Station,NSW,"331,564","92,101",Waste Coal Mine Gas,2020-2021,-32.4612156,151.1069328,False
72,CK WILLIAM AUSTRALIA HOLDINGS PTY LTD,Grange Avenue LFG Power Station,NSW,"16,149","4,486",Landfill Gas,2020-2021,-33.701442,150.8513512,True
73,CK WILLIAM AUSTRALIA HOLDINGS PTY LTD,Grosvenor 1 WCMG Power Station,QLD,"510,305","141,752",Waste Coal Mine Gas,2020-2021,-25.4280672,151.1771816,False
74,CK WILLIAM AUSTRALIA HOLDINGS PTY LTD,Grosvenor 2 WCMG Power Station,QLD,"345,750","96,042",Waste Coal Mine Gas,2020-2021,-25.4280672,151.1771816,False
75,CK WILLIAM AUSTRALIA HOLDINGS PTY LTD,Halls Creek LNG Power Station,WA,"42,069","11,686",Gas,2020-2021,-18.2229842,127.6701399,False
76,CK WILLIAM AUSTRALIA HOLDINGS PTY LTD,Jack's Gully LFG Power Station,NSW,"32,506","9,029",Landfill Gas,2020-2021,-31.2532183,146.921099,True
77,CK WILLIAM AUSTRALIA HOLDINGS PTY LTD,Kalamunda Power Station,WA,0,0,Diesel,2020-2021,-31.9733275,116.0604722,False
78,CK WILLIAM AUSTRALIA HOLDINGS PTY LTD,Laverton Facility,WA,"14,461","4,017",Diesel,2020-2021,-28.6259124,122.4014814,False
79,CK WILLIAM AUSTRALIA HOLDINGS PTY LTD,Leonora Facility,WA,"29,410","8,170",Gas,2020-2021,-28.821584,121.2809556,False
80,CK WILLIAM AUSTRALIA HOLDINGS PTY LTD,Looma NGD Power Station,WA,"9,087","2,524",Diesel,2020-2021,-18.0398016,124.1493803,False
81,CK WILLIAM AUSTRALIA HOLDINGS PTY LTD,Lucas Heights 1 LFG Power Station,NSW,"43,250","12,014",Landfill Gas,2020-2021,-34.0506403,150.9872444,True
82,CK WILLIAM AUSTRALIA HOLDINGS PTY LTD,Lucas Heights 2 LFG Power Station,NSW,"418,510","116,253",Landfill Gas,2020-2021,-34.0506403,150.9872444,True
83,CK WILLIAM AUSTRALIA HOLDINGS PTY LTD,McArthur River Power Station,NT,"1,182,344","328,429",Gas,2020-2021,-16.11427123151219,136.3288903783971,False
84,CK WILLIAM AUSTRALIA HOLDINGS PTY LTD,Menzies Facility,WA,"2,251",625,Diesel,2020-2021,-29.6935575,121.0288851,False
85,CK WILLIAM AUSTRALIA HOLDINGS PTY LTD,Moranbah North CMM Power Station,QLD,"1,298,272","360,631",Waste Coal Mine Gas,2020-2021,-21.8853292,147.9657585,False
86,CK WILLIAM AUSTRALIA HOLDINGS PTY LTD,Mugga Lane LFG Power Station,ACT,0,0,Landfill Gas,2020-2021,-35.3739879,149.1324352,True
87,CK WILLIAM AUSTRALIA HOLDINGS PTY LTD,Oaky Creek II WCMG Power Station,QLD,"334,009","92,780",Waste Coal Mine Gas,2020-2021,-28.1913043,152.9375365,False
88,CK WILLIAM AUSTRALIA HOLDINGS PTY LTD,Oaky Creek WCMG Power Station,QLD,"281,532","78,203",Waste Coal Mine Gas,2020-2021,-28.1913043,152.9375365,False
89,CK WILLIAM AUSTRALIA HOLDINGS PTY LTD,Pine Creek A Power Station,NT,"765,667","212,685",Gas,2020-2021,-13.8226918,131.8344229,False
90,CK WILLIAM AUSTRALIA HOLDINGS PTY LTD,Red Hill LFG Power Station,WA,"77,397","21,499",Landfill Gas,2020-2021,-31.8548072,116.0538776,True
91,CK WILLIAM AUSTRALIA HOLDINGS PTY LTD,Springvale LFG Power Station,VIC,"22,268","6,186",Landfill Gas,2020-2021,-37.9487211,145.1529433,True
92,CK WILLIAM AUSTRALIA HOLDINGS PTY LTD,Tahmoor WCMG Power Station,NSW,"173,792","48,276",Waste Coal Mine Gas,2020-2021,-34.2246566,150.5929466,False
93,CK WILLIAM AUSTRALIA HOLDINGS PTY LTD,Tamala Park LFG Power Station,WA,"117,355","32,599",Landfill Gas,2020-2021,-31.704321,115.7349162,True
94,CK WILLIAM AUSTRALIA HOLDINGS PTY LTD,Tower CSM Power Station,NSW,"587,770","163,269",Waste Coal Mine Gas,2020-2021,-31.2532183,146.921099,False
95,CK WILLIAM AUSTRALIA HOLDINGS PTY LTD,Warmun Facility,WA,"9,427","2,619",Diesel,2020-2021,-17.029704,128.2108177,False
96,CK WILLIAM AUSTRALIA HOLDINGS PTY LTD,Weipa Solar Power Station,QLD,"9,029","2,508",Solar,2020-2021,-12.6492936,141.8469901,True
97,CK WILLIAM AUSTRALIA HOLDINGS PTY LTD,Wingfield 1 LFG Power Station,SA,"23,767","6,602",Landfill Gas,2020-2021,-34.8413535,138.54613,True
98,CK WILLIAM AUSTRALIA HOLDINGS PTY LTD,Wingfield 2 LFG Power Station,SA,"62,744","17,429",Landfill Gas,2020-2021,-34.8413535,138.54613,True
99,CK WILLIAM AUSTRALIA HOLDINGS PTY LTD,Wonthaggi Wind Farm,VIC,"81,626","22,674",Wind,2020-2021,-38.6073719,145.547975,True
100,CLARE SOLAR FARM HOLDINGS PTY LTD,Clare Solar Farm,QLD,"726,307","201,752",Solar,2020-2021,-19.8396942,147.2103537,True
101,CLARKE ENERGY (AUSTRALIA) PTY. LTD.,Daandine Power Station,QLD,"406,375","112,882",Coal Seam Methane,2020-2021,-27.0861935,150.9425679,False
102,CLEANCO QUEENSLAND LIMITED,Barron Gorge Power Station,QLD,"680,393","188,998",Hydro,2020-2021,-16.8509999,145.6468624,True
103,CLEANCO QUEENSLAND LIMITED,Kareeya Power Station,QLD,"2,018,871","560,798",Hydro,2020-2021,-17.767023,145.5780181,True
104,CLEANCO QUEENSLAND LIMITED,Swanbank E Power Station,QLD,"3,894,520","1,081,811",Gas,2020-2021,-27.6552772,152.8182067,False
105,CLEANCO QUEENSLAND LIMITED,Wivenhoe Power Station,QLD,"676,578","187,938",Hydro,2020-2021,-27.3724152,152.6320267,True
106,CONTRACT POWER AUSTRALIA PTY LTD,Cue Town Powerstation,WA,"12,371","3,436",Diesel,2020-2021,-27.4245191,117.8969772,False
107,CONTRACT POWER AUSTRALIA PTY LTD,Meekatharra Town Powerstation,WA,"21,671","6,020",Diesel,2020-2021,-26.5956611,118.4935984,False
108,CONTRACT POWER AUSTRALIA PTY LTD,Mt Magnet Town Powerstation,WA,"14,074","3,910",Gas,2020-2021,-28.0652329,117.8487476,False
109,CONTRACT POWER AUSTRALIA PTY LTD,Norseman Gold Power Station,WA,"11,889","3,303",Diesel,2020-2021,-32.1977913,121.7788563,False
110,CONTRACT POWER AUSTRALIA PTY LTD,Sandstone Town Powerstation,WA,"2,349",652,Diesel,2020-2021,-28.6401506,119.0459927,False
111,CONTRACT POWER AUSTRALIA PTY LTD,Wiluna Town Powerstation,WA,"8,508","2,364",Diesel,2020-2021,-26.5943011,120.227356,False
112,CONTRACT POWER AUSTRALIA PTY LTD,Yalgoo Town Powerstation,WA,"3,555",987,Diesel,2020-2021,-28.3508702,116.7658255,False
113,CWF HOLDINGS PTY LTD,Collgar Wind Farm,WA,"2,486,495","690,693",Wind,2020-2021,-31.9509006,115.8496117,True
114,DELTA ELECTRICITY PTY LTD,Vales Point Power Station,NSW,"24,372,427","6,770,119",Black Coal,2020-2021,-33.1620493,151.5407221,False
115,DIF INFRA 4 HOLDINGS AUSTRALIA PTY LTD,Royalla Solar Farm,ACT,"124,964","34,712",Solar,2020-2021,-35.4897929,149.1430018,True
116,DUNDONNELL WIND FARM PTY LTD,Dundonnell Wind Farm,VIC,"2,930,100","813,917",Wind,2020-2021,-36.9847807,143.3906074,True
117,EDIFY ENERGY PTY. LTD.,Gannawarra Solar Farm Pty Ltd,VIC,"382,474","106,243",Solar,2020-2021,-35.7350558,143.7794624,True
118,EDIFY ENERGY PTY. LTD.,Hamilton Solar Farm Pty Ltd,QLD,"452,015","125,560",Solar,2020-2021,-20.5023882,147.7698578,True
119,EDIFY ENERGY PTY. LTD.,The Daydream Solar Farm Trust,QLD,"1,180,951","328,042",Solar,2020-2021,-22.575197,144.0847926,True
120,EDIFY ENERGY PTY. LTD.,The Hayman Solar Farm Trust,QLD,"375,046","104,180",Solar,2020-2021,-20.4875155,147.7447776,True
121,EDIFY ENERGY PTY. LTD.,Whitsunday Solar Farm Pty,QLD,"394,974","109,715",Solar,2020-2021,-20.3441012,148.1892921,True
122,EDIFY ENERGY PTY. LTD.,Darlington Point Solar Farm Pty Ltd,NSW,"756,647","210,180",Solar,2020-2021,-34.6473191,146.0357394,True
123,ELECTRICITY GENERATION AND RETAIL CORPORATION,Bremer Bay Wind Diesel Power Station,WA,"6,783","1,884",Wind,2020-2021,-34.3979041,119.3763011,True
124,ELECTRICITY GENERATION AND RETAIL CORPORATION,Cockburn Power Station,WA,"471,454","130,959",Gas,2020-2021,-27.6728168,121.6283098,False
125,ELECTRICITY GENERATION AND RETAIL CORPORATION,Collie Power Station,WA,"3,756,282","1,043,412",Black Coal,2020-2021,-33.341644,116.2622398,False
126,ELECTRICITY GENERATION AND RETAIL CORPORATION,Coral Bay Wind Diesel Power Station,WA,"13,734","3,815",Diesel,2020-2021,-23.1422976,113.7723112,False
127,ELECTRICITY GENERATION AND RETAIL CORPORATION,Denham Wind Farm,WA,"5,243","1,456",Wind,2020-2021,-25.9299413,113.538149,True
128,ELECTRICITY GENERATION AND RETAIL CORPORATION,Esperance Wind Farm,WA,"48,961","13,600",Wind,2020-2021,-33.8613953,121.8912724,True
129,ELECTRICITY GENERATION AND RETAIL CORPORATION,Hopetoun Wind Diesel Power Station,WA,"19,277","5,355",Diesel,2020-2021,-33.936999,120.1270136,False
130,ELECTRICITY GENERATION AND RETAIL CORPORATION,Kalbarri Wind Farm,WA,"7,503","2,084",Wind,2020-2021,-27.7115397,114.1713913,True
131,ELECTRICITY GENERATION AND RETAIL CORPORATION,Kalgoorlie Gas Turbine Station,WA,"19,560","5,433",Gas,2020-2021,-30.749,121.466,False
132,ELECTRICITY GENERATION AND RETAIL CORPORATION,Kwinana Power Station,WA,"2,411,711","669,920",Gas,2020-2021,-32.2004954,115.774588,False
133,ELECTRICITY GENERATION AND RETAIL CORPORATION,Muja Power Station,WA,"12,914,677","3,587,410",Black Coal,2020-2021,-33.446204,116.3065633,False
134,ELECTRICITY GENERATION AND RETAIL CORPORATION,Mungarra Gas Turbine Station,WA,"111,333","30,926",Gas,2020-2021,-28.887904,115.118193,False
135,ELECTRICITY GENERATION AND RETAIL CORPORATION,Pinjar Gas Turbine Station,WA,"2,014,036","559,454",Gas,2020-2021,-31.62058739999999,115.8208094,False
136,ELECTRICITY NETWORKS CORPORATION,Ravensthorpe Power Station,WA,249,69,Diesel,2020-2021,-33.578677,120.0456159,False
137,ELLIOTT GREEN CHILDERS PTY LTD,Childers Solar Farm,QLD,"389,998","108,333",Solar,2020-2021,-25.2364948,152.2772276,True
138,ELLIOTT GREEN NEVERTIRE PTY LTD,Nevertire Solar Farm,NSW,"846,065","235,018",Solar,2020-2021,-31.8298168,147.7076416,True
139,ELLIOTT GREEN SUSAN RIVER PTY LTD,Susan River Solar Farm,QLD,"545,836","151,621",Solar,2020-2021,-25.4150161,152.7482407,True
140,ENERGY QUEENSLAND LIMITED,Aurukun Remote generation,QLD,"22,024","6,118",Diesel,2020-2021,-13.3549413,141.7267054,False
141,ENERGY QUEENSLAND LIMITED,Badu Island Remote Generation,QLD,"12,620","3,505",Diesel,2020-2021,-10.116416,142.1275481,False
142,ENERGY QUEENSLAND LIMITED,Bamaga Remote Generation,QLD,"57,973","16,104",Diesel,2020-2021,-10.892344,142.3871554,False
143,ENERGY QUEENSLAND LIMITED,Barcaldine Power Station Facility,QLD,"16,635","4,621",Gas,2020-2021,-23.5523795,145.3140957,False
144,ENERGY QUEENSLAND LIMITED,Bedourie Remote Generation,QLD,"5,383","1,495",Diesel,2020-2021,-24.5351117,139.5677302,False
145,ENERGY QUEENSLAND LIMITED,Birdsville Remote Generation,QLD,"6,034","1,676",Diesel,2020-2021,-25.8982126,139.353513,False
146,ENERGY QUEENSLAND LIMITED,Boigu Island Remote Generation,QLD,"4,999","1,389",Diesel,2020-2021,-9.2740531,142.223094,False
147,ENERGY QUEENSLAND LIMITED,Boulia Remote Generation,QLD,"10,752","2,987",Diesel,2020-2021,-22.9110493,139.9118532,False
148,ENERGY QUEENSLAND LIMITED,Burketown Remote Generation,QLD,"8,492","2,359",Diesel,2020-2021,-17.7422259,139.5479392,False
149,ENERGY QUEENSLAND LIMITED,Camooweal Remote Generation,QLD,"7,117","1,977",Diesel,2020-2021,-19.9214739,138.1200749,False
150,ENERGY QUEENSLAND LIMITED,Coconut Island Remote Generation,QLD,"4,405","1,224",Diesel,2020-2021,-10.0499406,143.0676416,False
151,ENERGY QUEENSLAND LIMITED,Coen Remote Generation,QLD,"6,815","1,893",Diesel,2020-2021,-13.945214,143.198799,False
152,ENERGY QUEENSLAND LIMITED,Darnley Island Remote Generation,QLD,"6,856","1,904",Diesel,2020-2021,-9.5974691,143.7614205,False
153,ENERGY QUEENSLAND LIMITED,Dauan Island Remote Generation,QLD,"3,522",978,Diesel,2020-2021,-9.4201831,142.5345281,False
154,ENERGY QUEENSLAND LIMITED,Doomadgee Remote Generation,QLD,"26,937","7,483",Diesel,2020-2021,-17.9399667,138.8292283,False
155,ENERGY QUEENSLAND LIMITED,Energy Impact - Bromelton Peak Generation Plant - Facility,QLD,"8,931","2,481",Diesel,2020-2021,-27.981644,152.9673844,False
156,ENERGY QUEENSLAND LIMITED,Energy Impact - Generation - Facility,QLD,"11,618","3,227",Diesel,2020-2021,-22.575197,144.0847926,False
157,ENERGY QUEENSLAND LIMITED,Gununa Remote Generation,QLD,"22,301","6,195",Diesel,2020-2021,-16.6665486,139.1839483,False
158,ENERGY QUEENSLAND LIMITED,Hammond Island,QLD,"3,215",893,Diesel,2020-2021,-10.5585847,142.2071605,False
159,ENERGY QUEENSLAND LIMITED,Jundah Remote Generation,QLD,"4,594","1,276",Diesel,2020-2021,-24.8316136,143.0589714,False
160,ENERGY QUEENSLAND LIMITED,Kowanyama Remote Generation,QLD,"18,452","5,126",Diesel,2020-2021,-15.474917,141.7452473,False
161,ENERGY QUEENSLAND LIMITED,Kubin Island Remote Generation,QLD,"8,757","2,433",Diesel,2020-2021,-10.170563,142.254972,False
162,ENERGY QUEENSLAND LIMITED,Lockhart River Remote Generation,QLD,"9,926","2,757",Diesel,2020-2021,-13.0443055,143.3950336,False
163,ENERGY QUEENSLAND LIMITED,Mabuig Island Remote Generation,QLD,"4,437","1,233",Diesel,2020-2021,-9.9553248,142.1832671,False
164,ENERGY QUEENSLAND LIMITED,Mapoon Remote Generation,QLD,"6,539","1,816",Diesel,2020-2021,-12.0236898,141.9047365,False
165,ENERGY QUEENSLAND LIMITED,Murray Island Remote Generation,QLD,"7,901","2,195",Diesel,2020-2021,-9.9186033,144.0493904,False
166,ENERGY QUEENSLAND LIMITED,Palm Island Remote Generation,QLD,"30,878","8,577",Diesel,2020-2021,-18.7344767,146.5797605,False
167,ENERGY QUEENSLAND LIMITED,Pormpuraaw,QLD,"11,649","3,236",Diesel,2020-2021,-14.8999292,141.6190745,False
168,ENERGY QUEENSLAND LIMITED,Sabai Island Remote Generation,QLD,"6,497","1,805",Diesel,2020-2021,-9.37806,142.6219811,False
169,ENERGY QUEENSLAND LIMITED,Stephen Island Remote Generation,QLD,"1,776",494,Diesel,2020-2021,-9.5078041,143.5459797,False
170,ENERGY QUEENSLAND LIMITED,Thursday Island Remote Generation,QLD,"95,562","26,545",Diesel,2020-2021,-10.5802361,142.2210964,False
171,ENERGY QUEENSLAND LIMITED,Warraber Island Remote Generation,QLD,"5,521","1,533",Diesel,2020-2021,-10.2082232,142.8245693,False
172,ENERGY QUEENSLAND LIMITED,Wasaga Remote Generation,QLD,"17,426","4,841",Diesel,2020-2021,44.5207419,-80.01606679999999,False
173,ENERGY QUEENSLAND LIMITED,Windorah Remote Generation,QLD,"4,571","1,270",Diesel,2020-2021,-25.4225397,142.6559128,False
174,ENERGY QUEENSLAND LIMITED,Yam Island,QLD,"6,884","1,912",Diesel,2020-2021,-9.9029808,142.775032,False
175,ENERGY QUEENSLAND LIMITED,York Island,QLD,"5,781","1,606",Diesel,2020-2021,-10.6833608,142.5285259,False
176,ENERGYAUSTRALIA HOLDINGS LIMITED,Hallett Power Station,SA,"161,990","44,997",Gas,2020-2021,-33.3522796,138.7536186,False
177,ENERGYAUSTRALIA HOLDINGS LIMITED,Jeeralang Power Station,VIC,"460,490","127,914",Gas,2020-2021,-38.2750317,146.4254869,False
178,ENERGYAUSTRALIA HOLDINGS LIMITED,Mt Piper Power Station,NSW,"29,108,758","8,085,766",Black Coal,2020-2021,-33.358008,150.0320006,False
179,ENERGYAUSTRALIA HOLDINGS LIMITED,Newport Power Station,VIC,"1,060,963","294,712",Gas,2020-2021,-37.8411815,144.8944409,False
180,ENERGYAUSTRALIA HOLDINGS LIMITED,Tallawarra Power Station,NSW,"2,441,731","678,259",Gas,2020-2021,-34.5224899,150.8082317,False
181,ENERGYAUSTRALIA HOLDINGS LIMITED,Yallourn Power Station,VIC,"32,048,316","8,902,310",Brown Coal,2020-2021,-38.1814386,146.3479385,False
182,ESPERANCE POWER STATION PTY LTD,Esperance Power Station,WA,"244,361","67,878",Gas,2020-2021,-33.8613953,121.8912724,False
183,ESSENTIAL ENERGY,Essential Energy Generation Facility - Broken Hill Gas Turbine,NSW,266,74,Diesel,2020-2021,-31.9595859,141.4608138,False
184,FENGATE EXMOUTH ENERGY SPV PTY LTD,Exmouth Power Station Pty Ltd,WA,"96,975","26,937",Gas,2020-2021,-21.9323088,114.1278654,False
185,FINLEY SOLAR HOLDINGS PTY LTD,Finley Solar Farm,NSW,"1,052,225","292,285",Solar,2020-2021,-35.64421,145.5086444,True
186,FORTESCUE METALS GROUP LTD,Solomon Power Station,WA,"1,082,415","300,671",Gas,2020-2021,-27.6728168,121.6283098,False
187,FS OAKEY 2 PTY LTD,Oakey 2 Solar Farm,QLD,"373,189","103,664",Solar,2020-2021,-27.4441771,151.722869,True
188,GENEX POWER LIMITED,Kidston Solar One - Solar - Qld,QLD,"446,066","123,907",Solar,2020-2021,-18.889097,144.138785,True
189,GENEX POWER LIMITED,Jemalong PV Asset Pty Ltd as Trustee for the Jemalong PV Asset Trust,NSW,"53,452","14,848",Solar,2020-2021,-33.4071807,147.7234587,True
190,GLENROWAN SUN FARM PTY LTD,Glenrowan West Solar Farm,VIC,"50,710","14,086",Solar,2020-2021,-36.4881172,146.1454925,True
191,GLOBAL POWER GENERATION AUSTRALIA PTY LTD,Berrybank Wind farm,VIC,"559,543","155,429",Wind,2020-2021,-37.9779902,143.4885877,True
192,GLOBAL POWER GENERATION AUSTRALIA PTY LTD,Crookwell 2 Wind farm,NSW,"1,042,881","289,689",Wind,2020-2021,-34.4580448,149.4702871,True
193,GOLDFIELDS POWER PTY LTD,Parkeston Power Station,WA,"941,977","261,661",Gas,2020-2021,-30.7269451,121.4974951,False
194,GOONUMBLA HOLDINGS CO PTY. LTD.,Goonumbla Solar Farm,NSW,"475,866","132,185",Solar,2020-2021,-32.9178827,148.0521359,True
195,GRAND BARGAIN HOLDCO PTY LTD,Crudine Ridge Wind Farm,NSW,"299,199","83,111",Wind,2020-2021,-32.8994051,149.6484026,True
196,GRAND BARGAIN HOLDCO PTY LTD,Bango Wind Farm,NSW,473,131,Wind,2020-2021,-34.5517015,148.7322235,True
197,GRAND BARGAIN HOLDCO PTY LTD,Boco Rock Wind Farm,NSW,"1,242,465","345,129",Wind,2020-2021,-36.5769554,149.125867,True
198,GRAND BARGAIN HOLDCO PTY LTD,Sapphire Wind Farm,NSW,"2,916,126","810,035",Wind,2020-2021,-31.2532183,146.921099,True
199,HYDRO-ELECTRIC CORPORATION,Bastyan Hydro Power Station,TAS,"1,110,745","308,540",Hydro,2020-2021,-41.7360047,145.5318835,True
200,HYDRO-ELECTRIC CORPORATION,Butlers Gorge Hydro Power Station,TAS,"326,190","90,608",Hydro,2020-2021,-42.28059469999999,146.3151456,True
201,HYDRO-ELECTRIC CORPORATION,Catagunya Hydro Power Station,TAS,"640,427","177,896",Hydro,2020-2021,-42.4376122,146.5621389,True
202,HYDRO-ELECTRIC CORPORATION,Cethana Hydro Power Station,TAS,"1,072,070","297,797",Hydro,2020-2021,-41.4767384,146.1328194,True
203,HYDRO-ELECTRIC CORPORATION,Devils Gate Hydro Power Station,TAS,"788,919","219,144",Hydro,2020-2021,-41.3500366,146.2647857,True
204,HYDRO-ELECTRIC CORPORATION,Flinders Island Power Station,TAS,"25,258","7,016",Wind,2020-2021,-40.1163649,148.0288719,True
205,HYDRO-ELECTRIC CORPORATION,John Butters Hydro Power Station,TAS,"1,430,035","397,232",Hydro,2020-2021,-42.1548711,145.5345778,True
206,HYDRO-ELECTRIC CORPORATION,King Island Power Station,TAS,"52,839","14,677",Wind,2020-2021,-39.87534770000001,143.9370758,True
207,HYDRO-ELECTRIC CORPORATION,Lake Echo Hydro Power Station,TAS,"256,233","71,176",Hydro,2020-2021,-42.1581419,146.6456158,True
208,HYDRO-ELECTRIC CORPORATION,Lake Margaret Lower Hydro Power station,TAS,"61,088","16,969",Hydro,2020-2021,-42.0039252,145.5442864,True
209,HYDRO-ELECTRIC CORPORATION,Lake Margaret Upper Hydro Power Station,TAS,"158,964","44,157",Hydro,2020-2021,-42.0039252,145.5442864,True
210,HYDRO-ELECTRIC CORPORATION,Lemonthyme Hydro Power Station,TAS,"798,835","221,899",Hydro,2020-2021,-41.5746481,146.1643107,True
211,HYDRO-ELECTRIC CORPORATION,Liapootah Hydro Power Station,TAS,"1,542,846","428,568",Hydro,2020-2021,-42.3182578,146.4726908,True
212,HYDRO-ELECTRIC CORPORATION,Meadowbank Hydro Power Station,TAS,"395,521","109,867",Hydro,2020-2021,-42.6362629,146.8488872,True
213,HYDRO-ELECTRIC CORPORATION,Paloona Hydro Power Station,TAS,"305,117","84,755",Hydro,2020-2021,-41.2581401,146.2699943,True
214,HYDRO-ELECTRIC CORPORATION,Parangana Hydro Power Station,TAS,"18,321","5,089",Hydro,2020-2021,-42.0409059,146.8087322,True
215,HYDRO-ELECTRIC CORPORATION,Poatina Hydro Power Station,TAS,"4,082,604","1,134,057",Hydro,2020-2021,-41.7958243,146.9610493,True
216,HYDRO-ELECTRIC CORPORATION,Rowallan Hydro Power Station,TAS,"107,273","29,798",Hydro,2020-2021,-41.7294863,146.2175479,True
217,HYDRO-ELECTRIC CORPORATION,Tarraleah Hydro Power Station,TAS,"2,264,778","629,105",Hydro,2020-2021,-42.301225,146.4503471,True
218,HYDRO-ELECTRIC CORPORATION,Trevallyn Hydro Power Station,TAS,"1,475,792","409,942",Hydro,2020-2021,-41.43540950000001,147.1197143,True
219,HYDRO-ELECTRIC CORPORATION,Tungatinah Hydro Power Station,TAS,"1,670,493","464,026",Hydro,2020-2021,-42.2967833,146.4566074,True
220,HYDRO-ELECTRIC CORPORATION,Wayatinah Hydro Power Station,TAS,"901,143","250,318",Hydro,2020-2021,-42.3886455,146.4997426,True
221,IMPACT INVESTMENT GROUP PTY LTD,Baking Board Solar Farm,QLD,"136,770","37,992",Solar,2020-2021,-22.575197,144.0847926,True
222,IMPACT INVESTMENT GROUP PTY LTD,Karratha Solar Power No 1 Pty Ltd,WA,"6,514","1,810",Solar,2020-2021,-20.7336955,116.8447057,True
223,IMPACT INVESTMENT GROUP PTY LTD,Maryrorough Solar Farm,QLD,"180,596","50,166",Solar,2020-2021,-22.575197,144.0847926,True
224,IMPACT INVESTMENT GROUP PTY LTD,Mount Majura Solar Farm,ACT,"15,086","4,191",Solar,2020-2021,-35.236124,149.1968059,True
225,IMPACT INVESTMENT GROUP PTY LTD,Swan Hill Solar Farm,VIC,"131,701","36,584",Solar,2020-2021,-35.3444511,143.5224671,True
226,IMPACT INVESTMENT GROUP PTY LTD,Williamsdale Solar Farm,ACT,"72,758","20,210",Solar,2020-2021,-35.5711406,149.1285092,True
227,INFIGEN ENERGY LIMITED,Alinta Wind Farm,WA,"1,100,731","305,758",Wind,2020-2021,-28.9024923,114.8927165,True
228,INFIGEN ENERGY LIMITED,Bodangora Wind Farm,NSW,"1,200,046","333,346",Wind,2020-2021,-32.4071283,149.04133,True
229,INFIGEN ENERGY LIMITED,Capital Wind Farm,NSW,"1,278,218","355,061",Wind,2020-2021,-35.1661165,149.518277,True
230,INFIGEN ENERGY LIMITED,Lake Bonney BESS Pty Ltd,SA,0,0,Battery,2020-2021,-34.2212234,140.4463218,False
231,INFIGEN ENERGY LIMITED,Smithfield Gas Turbine,NSW,"103,426","28,730",Gas,2020-2021,-33.8535722,150.9406861,False
232,INFIGEN ENERGY LIMITED,Woodlawn Wind Farm,NSW,"516,482","143,467",Wind,2020-2021,-35.0954285,149.5789486,True
233,INFIGEN ENERGY LIMITED,Cherry Tree Wind Farm,VIC,"707,960","196,655",Wind,2020-2021,-37.100352,145.2673653,True
234,INFIGEN ENERGY LIMITED,Iberdola Australia SAGT,SA,"17,280","4,800",Gas,2020-2021,-25.274398,133.775136,False
235,INTERNATIONAL POWER (AUSTRALIA) HOLDINGS PTY LIMITED,Dry Creek Power Station,SA,"53,394","14,832",Gas,2020-2021,-34.8474882,138.5818107,False
236,INTERNATIONAL POWER (AUSTRALIA) HOLDINGS PTY LIMITED,Kwinana Cogeneration Plant,WA,"2,808,166","780,046",Gas,2020-2021,-31.9505048,115.8604867,False
237,INTERNATIONAL POWER (AUSTRALIA) HOLDINGS PTY LIMITED,Mintaro Power Station,SA,"70,256","19,515",Gas,2020-2021,-33.9181674,138.7232044,False
238,INTERNATIONAL POWER (AUSTRALIA) HOLDINGS PTY LIMITED,Pelican Point Power Station,SA,"9,151,547","2,542,096",Gas,2020-2021,-34.7647018,138.5051574,False
239,INTERNATIONAL POWER (AUSTRALIA) HOLDINGS PTY LIMITED,Port Lincoln Power Station,SA,"2,698",749,Diesel,2020-2021,-34.7226381,135.8597449,False
240,INTERNATIONAL POWER (AUSTRALIA) HOLDINGS PTY LIMITED,Snuggery Power Station,SA,"2,422",673,Diesel,2020-2021,-30.0002315,136.2091547,False
241,INTERNATIONAL POWER (AUSTRALIA) HOLDINGS PTY LIMITED,Willogoleche Wind Farm,SA,"1,251,140","347,539",Wind,2020-2021,-33.3905367,138.8552865,True
242,KARADOC SOLAR FARM HOLDCO PTY LTD,KARADOC SOLAR FARM,VIC,"670,513","186,254",Solar,2020-2021,-34.4161986,142.2521812,True
243,KIAMCO FORESIGHT HANWHA BARCALDINE 1 PTY LTD,Barcaldine Remote Community Solar Farm Pty Ltd,QLD,"117,337","32,594",Solar,2020-2021,-23.5559218,145.2882741,True
244,KIAMCO HANWHA FORESIGHT BANNERTON PTY LTD,Bannerton Solar Farm,VIC,"649,559","180,433",Solar,2020-2021,-33.863851,151.2021431,True
245,LAL LAL WIND FARMS NOM CO PTY LIMITED,Lal Lal Wind Farm,VIC,"1,989,633","552,676",Wind,2020-2021,-37.6352291,144.0236608,True
246,LGI LIMITED,Benaraby LFGE Station,QLD,"22,586","6,274",Landfill Gas,2020-2021,-24.0066664,151.3263139,True
247,LGI LIMITED,Bunya LFGE Station,QLD,"15,641","4,345",Landfill Gas,2020-2021,-27.3741845,152.9304003,True
248,LGI LIMITED,Caboolture LFGE Station,QLD,"37,799","10,500",Landfill Gas,2020-2021,-27.0849748,152.9515862,True
249,LGI LIMITED,Dakabin LFGE Station,QLD,"58,987","16,385",Landfill Gas,2020-2021,-27.2267702,152.9825314,True
250,LGI LIMITED,Maryborough LFGE Station,QLD,"27,010","7,503",Landfill Gas,2020-2021,-25.5384947,152.7034191,True
251,LGI LIMITED,Mugga Lane LFGE Station,ACT,"112,103","31,140",Landfill Gas,2020-2021,-35.3739879,149.1324352,True
252,LGI LIMITED,Willawong LFGE Station,QLD,"17,080","4,744",Landfill Gas,2020-2021,-27.594358,153.0048274,True
253,LIGHTHOUSE INFRASTRUCTURE MANAGEMENT LIMITED,Emerald Solar Park,QLD,"557,952","154,987",Solar,2020-2021,-23.51,148.1299999,True
254,LILYVALE HOLDINGS CO PTY. LTD.,Lilyvale Solar Farm,QLD,"697,547","193,763",Solar,2020-2021,-23.0726109,148.4836953,True
255,LINCOLN GAP OPERATIONS PTY LTD,Lincoln Gap Wind Farm Operations Pty Ltd,SA,"1,582,585","439,607",Wind,2020-2021,-32.5880415,137.555243,True
256,LMS ENERGY PTY LTD,Albury Renewable Energy Facility,NSW,"22,320","6,200",Landfill Gas,2020-2021,-36.0751193,146.9094852,True
257,LMS ENERGY PTY LTD,Albury Solar Facility,NSW,"7,417","2,060",Solar,2020-2021,-36.0751193,146.9094852,True
258,LMS ENERGY PTY LTD,Awaba Renewable Energy Facility,NSW,"21,603","6,001",Landfill Gas,2020-2021,-33.0086146,151.5475816,True
259,LMS ENERGY PTY LTD,Ballarat Renewable Energy Facility,VIC,"43,948","12,208",Landfill Gas,2020-2021,-37.5621587,143.8502556,True
260,LMS ENERGY PTY LTD,Bendigo Renewable Energy Facility,VIC,"14,874","4,132",Landfill Gas,2020-2021,-36.75961960000001,144.2785764,True
261,LMS ENERGY PTY LTD,Birkdale Renewable Energy Facility,QLD,"13,178","3,661",Landfill Gas,2020-2021,-27.4935931,153.2137869,True
262,LMS ENERGY PTY LTD,Copping Renewable Energy Facility,TAS,"31,613","8,782",Landfill Gas,2020-2021,-42.8198706,147.8009052,True
263,LMS ENERGY PTY LTD,Darwin Renewable Energy Facility,NT,"28,728","7,980",Landfill Gas,2020-2021,-12.4637333,130.8444446,True
264,LMS ENERGY PTY LTD,Drysdale Renewable Energy Facility,VIC,"31,944","8,873",Landfill Gas,2020-2021,-36.9847807,143.3906074,True
265,LMS ENERGY PTY LTD,Eastern Creek 2 Renewable Energy Facility,NSW,"161,011","44,725",Landfill Gas,2020-2021,-33.8102184,150.85064,True
266,LMS ENERGY PTY LTD,Hampton Park Renewable Energy Facility,VIC,"269,742","74,928",Landfill Gas,2020-2021,-38.032286,145.2678469,True
267,LMS ENERGY PTY LTD,Ipswich Renewable Energy Facility,QLD,"14,861","4,128",Landfill Gas,2020-2021,-27.614614,152.7608421,True
268,LMS ENERGY PTY LTD,Mornington Peninsula Renewable Energy Facility,VIC,"15,558","4,322",Landfill Gas,2020-2021,-38.2854053,145.093449,True
269,LMS ENERGY PTY LTD,NAWMA Renewable Energy Facility,SA,"31,586","8,774",Landfill Gas,2020-2021,-34.7383029,138.6355222,True
270,LMS ENERGY PTY LTD,NAWMA Solar Facility,SA,"5,806","1,613",Solar,2020-2021,-34.7383029,138.6355222,True
271,LMS ENERGY PTY LTD,Newcastle Renewable Energy Facility,NSW,"66,641","18,511",Landfill Gas,2020-2021,-32.9282712,151.7816802,True
272,LMS ENERGY PTY LTD,Reedy Creek Renewable Energy Facility,QLD,"25,434","7,065",Landfill Gas,2020-2021,-28.1099597,153.4055706,True
273,LMS ENERGY PTY LTD,Rochedale Renewable Energy Facility,QLD,"168,460","46,794",Landfill Gas,2020-2021,-27.56924,153.1164813,True
274,LMS ENERGY PTY LTD,Seaford Heights Renewable Energy Facility,SA,"74,701","20,750",Landfill Gas,2020-2021,-35.1932154,138.4949854,True
275,LMS ENERGY PTY LTD,Shepparton Renewable Energy Facility,VIC,"22,881","6,356",Landfill Gas,2020-2021,-36.3821418,145.4072272,True
276,LMS ENERGY PTY LTD,South Cardup Renewable Energy Facility,WA,"67,055","18,626",Landfill Gas,2020-2021,-32.2577875,115.9963935,True
277,LMS ENERGY PTY LTD,Stapylton Renewable Energy Facility,QLD,"98,921","27,478",Landfill Gas,2020-2021,-27.7295742,153.2388459,True
278,LMS ENERGY PTY LTD,Swanbank Renewable Energy Facility,QLD,"46,040","12,789",Landfill Gas,2020-2021,-27.6397754,152.8240562,True
279,LMS ENERGY PTY LTD,Wollert Renewable Energy Facility,VIC,"237,652","66,014",Landfill Gas,2020-2021,-37.6085118,145.0313459,True
280,LMS ENERGY PTY LTD,Wyndham Renewable Energy Facility,VIC,"119,678","33,244",Landfill Gas,2020-2021,-36.9847807,143.3906074,True
281,LMS ENERGY PTY LTD,Wyong Renewable Energy Facility,NSW,"68,299","18,972",Landfill Gas,2020-2021,-33.2843475,151.4249427,True
282,LMS ENERGY PTY LTD,Caloundra Renewable Energy Facility,QLD,"19,462","5,406",Landfill Gas,2020-2021,-26.8043999,153.1254643,True
283,LMS ENERGY PTY LTD,Seaford Heights Solar Facility,SA,"2,421",672,Solar,2020-2021,-35.1932154,138.4949854,True
284,LONGREACH ASSET COMPANY PTY LTD,Longreach SF,QLD,"116,119","32,255",Solar,2020-2021,-23.4403125,144.2506199,True
285,LONGREACH NEW HOLDCO PTY LTD,Longreach Solar Farm,QLD,"116,119","32,255",Solar,2020-2021,-23.4403125,144.2506199,True
286,LS AUSTRALIA HOLDCO1 PTY LTD,Wellington Solar Farm,NSW,"174,242","48,400",Solar,2020-2021,-32.5128965,148.9720982,True
287,MERIDIAN ENERGY AUSTRALIA PTY LIMITED,Burrinjuck Hydro,NSW,"352,956","98,043",Hydro,2020-2021,-34.9815388,148.617713,True
288,MERIDIAN ENERGY AUSTRALIA PTY LIMITED,Hume Hydro,NSW,"530,308","147,308",Hydro,2020-2021,-31.2532183,146.921099,True
289,MERIDIAN ENERGY AUSTRALIA PTY LIMITED,Keepit Hydro,NSW,"6,314","1,754",Hydro,2020-2021,-30.8941167,150.5036412,True
290,MERIDIAN ENERGY AUSTRALIA PTY LIMITED,Mt Mercer Wind farm Pty Ltd,VIC,"1,299,911","361,086",Wind,2020-2021,-37.8318698,143.8884633,True
291,MERIDIAN ENERGY AUSTRALIA PTY LIMITED,Mt Millar Wind Farm Pty Ltd,SA,"611,833","169,954",Wind,2020-2021,-33.6255531,136.7039082,True
292,MOMENTUM ENERGY PTY LIMITED,Alfred Hospital Cogeneration Plant,VIC,"40,021","11,117",Gas,2020-2021,-37.846154,144.9827473,False
293,MOMENTUM ENERGY PTY LIMITED,Dandenong Hospital Cogeneration Plant,VIC,"41,542","11,539",Gas,2020-2021,-37.976484,145.2192169,False
294,MOMENTUM ENERGY PTY LIMITED,Geelong Hospital Cogeneration Plant,VIC,"41,544","11,540",Gas,2020-2021,-38.1521039,144.3654034,False
295,MOMENTUM ENERGY PTY LIMITED,Royal Melbourne Hospital Cogeneration Plant,VIC,"98,554","27,376",Gas,2020-2021,-37.7986657,144.955973,False
296,MOORABOOL WIND FARM (HOLDING) PTY LTD,Moorabool Wind Farm Pty Ltd,VIC,"249,956","69,432",Wind,2020-2021,-37.7394582,144.1715885,True
297,MUMBIDA WIND FARM NO 1 HOLDINGS PTY LTD,Mumbida Wind Farm Pty Ltd,WA,"720,925","200,257",Wind,2020-2021,-29.0110631,114.9684225,True
298,NEOEN AUSTRALIA PTY. LTD.,BULGANA GREEN POWER HUB,VIC,"1,349,662","374,906",Wind,2020-2021,-37.1472761,142.9370755,True
299,NEOEN AUSTRALIA PTY. LTD.,COLEAMBALLY SOLAR PTY LTD,NSW,"1,234,361","342,878",Solar,2020-2021,-34.8041127,145.8796829,True
300,NEOEN AUSTRALIA PTY. LTD.,DEGRUSSA SOLAR PROJECT PTY LTD,WA,"76,781","21,328",Solar,2020-2021,-25.5399495,119.3229267,True
301,NEOEN AUSTRALIA PTY. LTD.,DUBBO SOLAR HUB PTY LTD,NSW,"210,533","58,481",Solar,2020-2021,-32.2443908,148.614418,True
302,NEOEN AUSTRALIA PTY. LTD.,GRIFFITH SOLAR FARM PTY LTD,NSW,"249,520","69,311",Solar,2020-2021,-34.3174144,146.1207389,True
303,NEOEN AUSTRALIA PTY. LTD.,HORNSDALE POWER RESERVE PTY LTD,SA,0,0,Battery,2020-2021,-33.085897,138.5183516,False
304,NEOEN AUSTRALIA PTY. LTD.,NUMURKAH SOLAR FARM PTY LTD,VIC,"829,959","230,544",Solar,2020-2021,-36.1596789,145.4738272,True
305,NEOEN AUSTRALIA PTY. LTD.,PARKES SOLAR FARM PTY LTD,NSW,"453,057","125,849",Solar,2020-2021,-33.11293089999999,148.0763972,True
306,NEW ENERGY SOLAR LIMITED,FS NSW Project No 1 AT Pty Ltd as trustee for FS NSW Project No 1 Asset Trust,NSW,"640,126","177,813",Solar,2020-2021,-31.2532183,146.921099,True
307,NEW ENERGY SOLAR LIMITED,Manildra Prop Pty Ltd as trustee for Manildra Asset Trust,NSW,"311,854","86,626",Solar,2020-2021,-33.2193329,148.6229664,True
308,NEWGEN KWINANA HOLDINGS PTY LTD,Kwinana Gas Fired Power Station,WA,"7,297,874","2,027,187",Gas,2020-2021,-32.2320792,115.7787256,False
309,NRG VICTORIA I PTY LTD,Gladstone Power Station,QLD,"23,114,397","6,420,666",Black Coal,2020-2021,-23.8487488,151.2183353,False
310,OAKEY 1 ASSET COMPANY PTY LTD,Oakey 1 Solar Farm,NSW,"187,381","52,050",Solar,2020-2021,-31.2532183,146.921099,True
311,OAKEY 1 NEW HOLDCO PTY LTD,Oakey 1 Solar Farm,QLD,"187,381","52,050",Solar,2020-2021,-27.4441771,151.722869,True
312,ORIGIN ENERGY LIMITED,Ballarat Solar Park,VIC,"1,209",336,Solar,2020-2021,-37.5621587,143.8502556,True
313,ORIGIN ENERGY LIMITED,Bendigo Solar Park,VIC,"1,511",420,Solar,2020-2021,-36.75961960000001,144.2785764,True
314,ORIGIN ENERGY LIMITED,Bond,NSW,"2,157",599,Gas,2020-2021,-31.2532183,146.921099,False
315,ORIGIN ENERGY LIMITED,Chifley Square,NSW,"3,870","1,075",Gas,2020-2021,-33.8659402,151.2110977,False
316,ORIGIN ENERGY LIMITED,Darling Downs Power Station,QLD,"6,495,463","1,804,295",Gas,2020-2021,-27.1164455,150.8954925,False
317,ORIGIN ENERGY LIMITED,Eraring Power Station,NSW,"52,235,712","14,509,920",Black Coal,2020-2021,-33.0619324,151.5197469,False
318,ORIGIN ENERGY LIMITED,Exhibition Street,VIC,534,148,Gas,2020-2021,-37.8116895,144.9704421,False
319,ORIGIN ENERGY LIMITED,Kent Street,NSW,"11,287","3,135",Gas,2020-2021,-33.8666677,151.2043583,False
320,ORIGIN ENERGY LIMITED,Ladbroke Grove Power Station,SA,"303,619","84,339",Gas,2020-2021,-37.4567985,140.7829834,False
321,ORIGIN ENERGY LIMITED,Mortlake Power Station,VIC,"1,877,041","521,400",Gas,2020-2021,-38.063061,142.6679099,False
322,ORIGIN ENERGY LIMITED,Mount,NSW,"5,624","1,562",Gas,2020-2021,-31.2532183,146.921099,False
323,ORIGIN ENERGY LIMITED,Mt Stuart Power Station,QLD,"140,913","39,142",Kerosene,2020-2021,-19.3379375,146.8513486,False
324,ORIGIN ENERGY LIMITED,Quarantine Power Station,SA,"473,840","131,622",Gas,2020-2021,-34.7801742,138.5221099,False
325,ORIGIN ENERGY LIMITED,Roma Power Station,QLD,"174,977","48,605",Gas,2020-2021,-26.5710799,148.7856852,False
326,ORIGIN ENERGY LIMITED,Shoalhaven Scheme,NSW,"446,873","124,131",Hydro,2020-2021,-35.0810677,150.4892292,True
327,ORIGIN ENERGY LIMITED,Stockland Headquarters,NSW,"3,303",918,Gas,2020-2021,-31.2532183,146.921099,False
328,ORIGIN ENERGY LIMITED,University of NSW,NSW,"8,274","2,298",Gas,2020-2021,-33.917347,151.2312675,False
329,ORIGIN ENERGY LIMITED,Uranquinty Power Station,NSW,"588,189","163,386",Gas,2020-2021,-35.1793949,147.2149902,False
330,OZGEN HOLDINGS AUSTRALIA PTY LTD,Callide C Power Station (facility),QLD,"18,205,965","5,057,213",Black Coal,2020-2021,-24.2927187,150.4933758,False
331,OZGEN HOLDINGS AUSTRALIA PTY LTD,Millmerran Power Station (facility),QLD,"22,829,107","6,341,419",Black Coal,2020-2021,-27.9619619,151.2790597,False
332,PALISADE GRANVILLE HARBOUR INVESTMENTS PTY LTD,Granville Harbour Wind Farm,TAS,"1,222,624","339,618",Wind,2020-2021,-41.8020351,145.0559948,True
333,PALISADE SOLAR 1 PTY LTD,Ross River Solar Farm,QLD,"966,896","268,582",Solar,2020-2021,-19.4130191,146.7207946,True
334,PALISADE WATERLOO HOLDINGS PTY LTD,Waterloo Wind Farm,SA,"1,207,301","335,361",Wind,2020-2021,-34.00106030000001,138.9110041,True
335,PIONEER SAIL HOLDINGS PTY LIMITED,Bairnsdale Power Station,VIC,"257,399","71,500",Gas,2020-2021,-37.8428384,147.563966,False
336,PIONEER SAIL HOLDINGS PTY LIMITED,Braemar Power Station,QLD,"1,320,790","366,886",Coal Seam Methane,2020-2021,-27.1107842,150.9054673,False
337,PIONEER SAIL HOLDINGS PTY LIMITED,Loy Yang B Power Station,VIC,"31,724,455","8,812,348",Brown Coal,2020-2021,-38.2567843,146.5860271,False
338,PIONEER SAIL HOLDINGS PTY LIMITED,Newman Power Station,WA,"1,047,789","291,052",Gas,2020-2021,-23.3574915,119.7303373,False
339,PIONEER SAIL HOLDINGS PTY LIMITED,Port Hedland Power Station,WA,"1,985,076","551,410",Gas,2020-2021,-20.4280016,118.5502998,False
340,PIONEER SAIL HOLDINGS PTY LIMITED,Wagerup Power Station,WA,"1,203,683","334,356",Gas,2020-2021,-32.9160782,115.918999,False
341,POWER AND WATER CORPORATION,Alpurrurulam (Lake Nash),NT,"5,606","1,557",Diesel,2020-2021,-20.9841916,137.847666,False
342,POWER AND WATER CORPORATION,Amanbidgi (Kildurk),NT,860,239,Diesel,2020-2021,-16.1847598,129.6406866,False
343,POWER AND WATER CORPORATION,"Ampilatwatja (Alparra, Ammaroo)",NT,"15,016","4,171",Diesel,2020-2021,-21.752029,135.236099,False
344,POWER AND WATER CORPORATION,Amunturangu (Mount Liebig),NT,"3,287",913,Diesel,2020-2021,-23.2659591,131.2722316,False
345,POWER AND WATER CORPORATION,Aputula (Finke),NT,"3,527",980,Diesel,2020-2021,-25.5821522,134.5779806,False
346,POWER AND WATER CORPORATION,Areyonga (Utju),NT,"3,990","1,108",Diesel,2020-2021,-24.0734645,132.2693601,False
347,POWER AND WATER CORPORATION,Atitjere (Harts Range),NT,"3,366",935,Diesel,2020-2021,-22.9856011,134.9351115,False
348,POWER AND WATER CORPORATION,Borroloola Generation,NT,"21,524","5,979",Diesel,2020-2021,-16.070278,136.307222,False
349,POWER AND WATER CORPORATION,Bulla Camp,NT,"1,392",387,Diesel,2020-2021,-15.768853,130.039341,False
350,POWER AND WATER CORPORATION,Bulman,NT,"4,733","1,315",Diesel,2020-2021,-13.663028,134.3317308,False
351,POWER AND WATER CORPORATION,Daly Waters Generation,NT,"5,894","1,637",Diesel,2020-2021,-16.253333,133.369167,False
352,POWER AND WATER CORPORATION,Engawala (Alcoota),NT,"2,089",581,Diesel,2020-2021,-22.8036906,134.4554661,False
353,POWER AND WATER CORPORATION,Epenarra (Wutunugurra),NT,"2,941",817,Diesel,2020-2021,-20.4626041,135.2512773,False
354,POWER AND WATER CORPORATION,Eva Valley,NT,"1,224",340,Diesel,2020-2021,-13.1298444,131.0142497,False
355,POWER AND WATER CORPORATION,Galiwinku (Elcho Island),NT,"27,664","7,684",Diesel,2020-2021,-12.0230106,135.5657089,False
356,POWER AND WATER CORPORATION,Gapuwiyak (Lake Evella),NT,"11,837","3,288",Diesel,2020-2021,-12.4993009,135.8062133,False
357,POWER AND WATER CORPORATION,Gunbalanya (Oenpelli),NT,"19,287","5,358",Diesel,2020-2021,-12.32825,133.056,False
358,POWER AND WATER CORPORATION,Ikuntji (Haasts Bluff),NT,"2,384",662,Diesel,2020-2021,-23.4471526,131.8822091,False
359,POWER AND WATER CORPORATION,Imangara (Murray Downs),NT,"1,324",368,Diesel,2020-2021,-21.2738477,134.9491466,False
360,POWER AND WATER CORPORATION,Imanpa (Mount Ebenezer),NT,"2,315",643,Diesel,2020-2021,-25.1019444,132.5716667,False
361,POWER AND WATER CORPORATION,Kalkaringi (Wave Hill),NT,"10,619","2,950",Diesel,2020-2021,-17.4480442,130.8310031,False
362,POWER AND WATER CORPORATION,Kaltukatjara (Docker River),NT,"5,502","1,528",Diesel,2020-2021,-24.8804857,129.0792084,False
363,POWER AND WATER CORPORATION,Lajamanu (Hooker Creek),NT,"12,507","3,474",Diesel,2020-2021,-18.3365,130.636993,False
364,POWER AND WATER CORPORATION,Laramba (Napperby),NT,"3,417",949,Diesel,2020-2021,-22.5372946,132.7712369,False
365,POWER AND WATER CORPORATION,Maningrida,NT,"35,536","9,871",Diesel,2020-2021,-12.0551674,134.2313799,False
366,POWER AND WATER CORPORATION,Milikapiti (Snake Bay),NT,"8,377","2,327",Diesel,2020-2021,-11.4207344,130.6521314,False
367,POWER AND WATER CORPORATION,Milingimbi,NT,"14,679","4,077",Diesel,2020-2021,-12.0939133,134.8973049,False
368,POWER AND WATER CORPORATION,Milyakburra (Bickerton Island),NT,"3,324",923,Diesel,2020-2021,-13.7832463,136.1961739,False
369,POWER AND WATER CORPORATION,Minjilang (Croker Island),NT,"4,968","1,380",Diesel,2020-2021,-11.1475753,132.5767751,False
370,POWER AND WATER CORPORATION,Minyerri (Hodgson Downs),NT,"8,743","2,429",Diesel,2020-2021,-15.2254373,134.0797815,False
371,POWER AND WATER CORPORATION,Nauiyu Nambiyu (Daly River),NT,"12,100","3,361",Solar,2020-2021,-13.7121487,130.6885652,True
372,POWER AND WATER CORPORATION,Nguiu (Bathurst Island),NT,"27,021","7,506",Diesel,2020-2021,-11.7619227,130.6317972,False
373,POWER AND WATER CORPORATION,Ngukurr (Roper River),NT,"17,680","4,911",Diesel,2020-2021,-14.733834,134.7322863,False
374,POWER AND WATER CORPORATION,Numbulwar (Rose River),NT,"10,937","3,038",Diesel,2020-2021,-14.2770418,135.7210604,False
375,POWER AND WATER CORPORATION,Nyirripi (Waite Creek),NT,"4,038","1,122",Diesel,2020-2021,-22.6499244,130.5524637,False
376,POWER AND WATER CORPORATION,Orwaitilla (Canteen Creek),NT,"3,072",853,Diesel,2020-2021,-20.6440035,135.587927,False
377,POWER AND WATER CORPORATION,Palumpa,NT,"5,529","1,536",Diesel,2020-2021,-14.3523927,129.8822501,False
378,POWER AND WATER CORPORATION,Papunya,NT,"7,295","2,026",Diesel,2020-2021,-23.2053323,131.9112738,False
379,POWER AND WATER CORPORATION,Peppimenarti,NT,"5,147","1,430",Diesel,2020-2021,-14.1501858,130.0762599,False
380,POWER AND WATER CORPORATION,Pidgeon Hole,NT,"1,944",540,Diesel,2020-2021,-16.8148579,131.2196946,False
381,POWER AND WATER CORPORATION,Pirlangimpi (Garden Point),NT,"7,758","2,155",Diesel,2020-2021,-11.405157,130.4173321,False
382,POWER AND WATER CORPORATION,Ramingining,NT,"13,728","3,813",Diesel,2020-2021,-12.3285681,134.9280587,False
383,POWER AND WATER CORPORATION,Robinson River,NT,"4,222","1,173",Diesel,2020-2021,-16.15791413711197,137.1753049032663,False
384,POWER AND WATER CORPORATION,Tara (Neutral Junction),NT,"1,227",341,Diesel,2020-2021,-21.52354,133.989594,False
385,POWER AND WATER CORPORATION,Ti Tree Generation,NT,"8,267","2,297",Diesel,2020-2021,-22.1291783,133.4161598,False
386,POWER AND WATER CORPORATION,Timber Creek,NT,"8,926","2,479",Diesel,2020-2021,-15.6458527,130.4668349,False
387,POWER AND WATER CORPORATION,Titjikala (Maryvale),NT,"3,921","1,089",Diesel,2020-2021,-24.674782,134.0764527,False
388,POWER AND WATER CORPORATION,Umbakumba,NT,"10,011","2,781",Diesel,2020-2021,-13.8616879,136.8117295,False
389,POWER AND WATER CORPORATION,Wadeye (Port Keats),NT,"34,526","9,591",Gas,2020-2021,-14.250637,129.549659,False
390,POWER AND WATER CORPORATION,Walungurru (Kintore),NT,"6,436","1,788",Diesel,2020-2021,-23.2756448,129.3893238,False
391,POWER AND WATER CORPORATION,Warruwi (Goulburn Is),NT,"7,343","2,040",Diesel,2020-2021,-11.6511842,133.3885099,False
392,POWER AND WATER CORPORATION,Wilora (Stirling),NT,"1,093",304,Diesel,2020-2021,-21.7404613,133.7311459,False
393,POWER AND WATER CORPORATION,Wirliyatjarrayi (Willowra),NT,"3,705","1,029",Diesel,2020-2021,-21.2471627,132.6105377,False
394,POWER AND WATER CORPORATION,Yarralin,NT,"5,767","1,602",Diesel,2020-2021,-16.4474276,130.8837408,False
395,POWER AND WATER CORPORATION,Yuendumu,NT,"18,411","5,114",Diesel,2020-2021,-22.2539566,131.7953883,False
396,POWER GENERATION CORPORATION,Channel Island Power Station,NT,"2,626,539","729,594",Gas,2020-2021,-12.5550166,130.8663184,False
397,POWER GENERATION CORPORATION,Katherine Power Station,NT,"81,943","22,762",Gas,2020-2021,-19.4914108,132.5509603,False
398,POWER GENERATION CORPORATION,Kings Canyon,NT,"4,209","1,169",Solar,2020-2021,-24.2552941,131.5700131,True
399,POWER GENERATION CORPORATION,Owen Springs Power Station,NT,"447,653","124,348",Gas,2020-2021,-23.8632482,133.8253457,False
400,POWER GENERATION CORPORATION,Ron Goodin Power Station,NT,"241,600","67,111",Gas,2020-2021,-19.4914108,132.5509603,False
401,POWER GENERATION CORPORATION,Tennant Creek Power Station,NT,"110,844","30,790",Gas,2020-2021,-19.64591,134.1909565,False
402,POWER GENERATION CORPORATION,Weddell Power Station,NT,"1,721,689","478,247",Gas,2020-2021,-12.5772143,130.9502033,False
403,POWER GENERATION CORPORATION,Yulara Power Station,NT,"55,328","15,369",Gas,2020-2021,-25.237979,130.9856199,False
404,PRATT CONSOLIDATED HOLDINGS PTY. LTD.,Visy Energy - Coolaroo Co-gen,VIC,"74,980","20,828",Biofuel,2020-2021,-37.6612312,144.9370304,True
405,QGC UPSTREAM INVESTMENTS PTY LTD,Condamine Power Station,QLD,"929,342","258,150",Gas,2020-2021,-26.6681504,150.270009,False
406,RATCH - AUSTRALIA CORPORATION PTY LTD,Kemerton Power Station,WA,"474,579","131,827",Gas,2020-2021,-33.1633786,115.7807467,False
407,RATCH - AUSTRALIA CORPORATION PTY LTD,Toora Wind Farm,VIC,"201,431","55,953",Wind,2020-2021,-38.6534438,146.3402295,True
408,RATCH - AUSTRALIA CORPORATION PTY LTD,Townsville Power Station,QLD,"848,808","235,780",Coal Seam Methane,2020-2021,-19.20158,146.6183471,False
409,RATCH - AUSTRALIA CORPORATION PTY LTD,Windy Hill Wind Farm,QLD,"83,282","23,134",Wind,2020-2021,-17.5945918,145.5313612,True
410,RATCH - AUSTRALIA CORPORATION PTY LTD,Collector Wind Farm,NSW,"147,033","40,842",Solar,2020-2021,-33.839887,151.2083929,True
411,RATCH - AUSTRALIA CORPORATION PTY LTD,Mount Emerald Wind Farm,QLD,"1,203,412","334,281",Solar,2020-2021,-17.1332484,145.3800374,True
412,RATCH - AUSTRALIA CORPORATION PTY LTD,Ratch-Australia Collinsville Solar PV,QLD,"449,614","124,893",Solar,2020-2021,-20.5530632,147.8442539,True
413,REGIONAL POWER CORPORATION,Carnarvon Power Station & Distribution network,WA,"139,310","38,697",Gas,2020-2021,-24.8838363,113.6570584,False
414,REGIONAL POWER CORPORATION,Denham Power Station & Denham Distribution network,WA,"15,306","4,251",Diesel,2020-2021,51.57877569999999,-0.4973433,False
415,REGIONAL POWER CORPORATION,Kalumburu Power Station & Distribution network,WA,"8,251","2,292",Diesel,2020-2021,-14.2917439,126.646165,False
416,REGIONAL POWER CORPORATION,Kununurra Power Station & Kununurra Distribution network,WA,"1,440",400,Diesel,2020-2021,-15.7783483,128.7439001,False
417,REGIONAL POWER CORPORATION,Marble Bar Power Station & Marble Bar Distribution network,WA,"8,626","2,396",Diesel,2020-2021,-21.1802046,119.936303,False
418,REGIONAL POWER CORPORATION,Murchison Radio Astronomy Power Station and Distribution Network,WA,"10,030","2,786",Diesel,2020-2021,47.7510741,-120.7401386,False
419,REGIONAL POWER CORPORATION,Nullagine Power Station & Nullagine Distribution network,WA,"4,546","1,263",Diesel,2020-2021,-21.8864147,120.1080446,False
420,REGIONAL POWER CORPORATION,Onslow Power Station & Onslow Distribution Network,WA,"68,073","18,909",Gas,2020-2021,-21.6671744,115.105188,False
421,REGIONAL POWER CORPORATION,Wyndham Power Station & Distribution network,WA,250,69,Diesel,2020-2021,-27.6728168,121.6283098,False
422,REGIONAL POWER CORPORATION,Yungngora Power Station & Yungngora Distribution Network,WA,"6,175","1,715",Diesel,2020-2021,-18.5015925,124.8277277,False
423,RENEWABLE POWER AUSTRALIA LIMITED,FPC Green Energy,QLD,"187,160","51,989",Bagasse,2020-2021,-22.575197,144.0847926,True
424,RIO TINTO LIMITED,Cape Lambert Power Station,WA,"1,056,200","293,389",Gas,2020-2021,-20.5833333,117.1666667,False
425,RIO TINTO LIMITED,Paraburdoo Power Station,WA,"1,928,887","535,802",Gas,2020-2021,-23.2007259,117.6714611,False
426,RIO TINTO LIMITED,West Angelas Power Station,WA,"1,351,802","375,500",Gas,2020-2021,-23.1777653,118.7617779,False
427,RIO TINTO LIMITED,Yurralyi Maya Power Station,WA,"1,791,832","497,731",Gas,2020-2021,-20.7637215,116.7427853,False
428,RISEN ENERGY AUSTRALIA HOLDINGS PTY LTD,Yarranlea Solar Farm,QLD,"536,025","148,896",Solar,2020-2021,-27.5774991,153.0947502,True
429,RISEN ENERGY AUSTRALIA HOLDINGS PTY LTD,Merredin Solar Farm,WA,"712,331","197,870",Solar,2020-2021,-31.5450952,118.2272246,True
430,RWE RENEWABLES AUSTRALIA PTY LTD,Limondale Solar Farm,NSW,"756,178","210,050",Solar,2020-2021,-34.7688689,143.5342941,True
431,SALT CREEK WIND FARM PTY LTD,Salt Creek Wind Farm,VIC,"563,282","156,467",Wind,2020-2021,-37.918698,142.7960267,True
432,SANTOS LIMITED,Wilga Park Power Station,NSW,"414,459","115,127",Coal Seam Methane,2020-2021,-30.3634841,149.6771233,False
433,SHELL ENERGY HOLDINGS AUSTRALIA LIMITED,Newgen Neerabup Power Station,WA,"721,675","200,465",Gas,2020-2021,-31.6711775,115.801039,False
434,SHELL ENERGY HOLDINGS AUSTRALIA LIMITED,Oakey Power Station,QLD,"166,915","46,365",Gas,2020-2021,-27.4182658,151.6810198,False
435,SHENHUA CLEAN ENERGY HOLDINGS PTY LIMITED,Musselroe Wind Farm Pty Ltd,TAS,"2,004,174","556,715",Wind,2020-2021,-40.7803916,148.0104827,True
436,SHENHUA CLEAN ENERGY HOLDINGS PTY LIMITED,Woolnorth Bluff point Wind Farm Pty Ltd,TAS,"751,316","208,699",Wind,2020-2021,-40.7396138,144.6893962,True
437,SHENHUA CLEAN ENERGY HOLDINGS PTY LIMITED,Woolnorth Studland Bay Wind Farm Pty Ltd,TAS,"949,900","263,861",Wind,2020-2021,-40.7848399,144.7294621,True
438,SNOWTOWN WIND FARM PTY LTD,Snowtown Wind Farm,SA,"1,132,533","314,593",Wind,2020-2021,-33.7140884,138.1408256,True
439,SNOWY HYDRO LIMITED,Angaston Power Station,SA,"3,083",856,Diesel,2020-2021,-30.0002315,136.2091547,False
440,SNOWY HYDRO LIMITED,Colongra Power Station,NSW,"245,016","68,060",Gas,2020-2021,-33.2094116,151.5457458,False
441,SNOWY HYDRO LIMITED,Laverton North Power Station,VIC,"187,540","52,094",Gas,2020-2021,-37.8410186,144.7875213,False
442,SNOWY HYDRO LIMITED,Lonsdale/Port Stanvac Power Station,SA,"5,902","1,639",Diesel,2020-2021,-35.1102132,138.4909081,False
443,SNOWY HYDRO LIMITED,Snowy Hydro Ltd,NSW,"17,160,777","4,766,882",Hydro,2020-2021,-31.2532183,146.921099,True
444,SOLAR FARM INVESTMENTS PTY LTD,Moree Solar Farm,NSW,"484,784","134,662",Solar,2020-2021,-29.56119339999999,149.8624335,True
445,SPARK INFRASTRUCTURE HOLDINGS NO. 1 PTY LIMITED,Bomen Solar Farm,NSW,"722,837","200,788",Solar,2020-2021,-35.0650017,147.4227613,True
446,SPIC PACIFIC ENERGY PTY LTD,Challicum Hills Wind Farm,VIC,"491,213","136,448",Wind,2020-2021,-37.3887311,143.0775131,True
447,SPIC PACIFIC ENERGY PTY LTD,Codrington Wind Farm,VIC,"149,815","41,615",Wind,2020-2021,-38.2727138,141.9730619,True
448,SPIC PACIFIC ENERGY PTY LTD,Crowlands Wind Farm,VIC,"986,028","273,897",Wind,2020-2021,-37.1498396,143.1093525,True
449,SPIC PACIFIC ENERGY PTY LTD,Eildon Pondage Hydro,VIC,"30,701","8,528",Hydro,2020-2021,-37.2429628,145.897452,True
450,SPIC PACIFIC ENERGY PTY LTD,Glenmaggie Hydro,VIC,"39,250","10,903",Hydro,2020-2021,-37.8758483,146.7174016,True
451,SPIC PACIFIC ENERGY PTY LTD,Haughton Solar Farm,QLD,"605,440","168,178",Solar,2020-2021,-19.736582,147.0414676,True
452,SPIC PACIFIC ENERGY PTY LTD,Ord Hydro,WA,"460,663","127,962",Hydro,2020-2021,-15.7742092,128.7399545,True
453,SPIC PACIFIC ENERGY PTY LTD,Portland Wind Farms,VIC,"1,651,355","458,710",Wind,2020-2021,-38.3644104,141.6251525,True
454,SPIC PACIFIC ENERGY PTY LTD,Taralga Wind Farm,NSW,"1,050,209","291,725",Wind,2020-2021,-34.4237104,149.8258649,True
455,SPIC PACIFIC ENERGY PTY LTD,The Drop Hydro,NSW,"12,098","3,360",Hydro,2020-2021,-35.7761274,145.7533079,True
456,SPIC PACIFIC ENERGY PTY LTD,William Hovell Hydro,VIC,"16,898","4,694",Hydro,2020-2021,-36.9252158,146.3894175,True
457,SPIC PACIFIC ENERGY PTY LTD,Yaloak South Wind Farm,VIC,"288,023","80,006",Wind,2020-2021,-37.7164742,144.2419466,True
458,SPIC PACIFIC ENERGY PTY LTD,Yambuk Wind Farm,VIC,"330,634","91,843",Wind,2020-2021,-38.316417,142.0678379,True
459,SRV AGWF PTY LTD,Albany Windfarm,WA,"207,656","57,682",Wind,2020-2021,-35.0658656,117.7996621,True
460,STANWELL CORPORATION LIMITED,Mackay Gas Turbine,QLD,115,32,Diesel,2020-2021,-21.1446265,149.1589441,False
461,STANWELL CORPORATION LIMITED,Mica Creek Power Station,QLD,"827,111","229,753",Gas,2020-2021,-20.7784961,139.489875,False
462,STANWELL CORPORATION LIMITED,Stanwell Power Station,QLD,"29,318,903","8,144,140",Black Coal,2020-2021,-23.5091325,150.3208166,False
463,STANWELL CORPORATION LIMITED,Tarong Power Stations,QLD,"43,140,359","11,983,433",Black Coal,2020-2021,-26.7813053,151.9144592,False
464,SUNRAYSIA SOLAR FARM HOLDINGS PTY LTD,Sunraysia Solar Farm,NSW,"316,206","87,835",Solar,2020-2021,-34.8215156,143.5087952,True
465,SUSTAINABLE ENERGY INFRASTRUCTURE HOLDINGS PTY LIMITED,Glenorchy Landfill,TAS,"28,596","7,943",Landfill Gas,2020-2021,-42.833056,147.275833,True
466,SUSTAINABLE ENERGY INFRASTRUCTURE HOLDINGS PTY LIMITED,Hobart Landfill,TAS,"19,132","5,315",Landfill Gas,2020-2021,-42.8826055,147.3257196,True
467,SUSTAINABLE ENERGY INFRASTRUCTURE HOLDINGS PTY LIMITED,Kemps Creek Landfill,NSW,8,2,Landfill Gas,2020-2021,-33.8805637,150.7927925,True
468,SUSTAINABLE ENERGY INFRASTRUCTURE HOLDINGS PTY LIMITED,Kincumber Landfill,NSW,"5,635","1,565",Landfill Gas,2020-2021,-33.4689844,151.3898882,True
469,SUSTAINABLE ENERGY INFRASTRUCTURE HOLDINGS PTY LIMITED,Moranbah Power Station,QLD,"185,462","51,517",Coal Seam Methane,2020-2021,-22.0060858,148.0398332,False
470,SUSTAINABLE ENERGY INFRASTRUCTURE HOLDINGS PTY LIMITED,Rockingham Landfill,WA,"41,162","11,434",Landfill Gas,2020-2021,-32.2780969,115.7351399,True
471,SUSTAINABLE ENERGY INFRASTRUCTURE HOLDINGS PTY LIMITED,Werribee Biogas,VIC,"134,276","37,299",Sludge Biogas,2020-2021,-37.8997995,144.6641401,False
472,SUSTAINABLE ENERGY INFRASTRUCTURE HOLDINGS PTY LIMITED,Woy Woy Landfill,NSW,"17,630","4,897",Landfill Gas,2020-2021,-33.4887953,151.3259426,True
473,THE TRUSTEE FOR GRSF TRUST,Greenough River Solar Farm,WA,"300,610","83,503",Solar,2020-2021,-28.9038103,115.1115641,True
474,THE UNIVERSITY OF QUEENSLAND,Warwick Solar Farm,QLD,"73,434","20,398",Solar,2020-2021,-28.1828975,152.0671539,True
475,TINSEL BIDCO PTY LTD,Snowtown South Wind Farm Pty Ltd,SA,"1,486,380","412,883",Wind,2020-2021,-33.7809175,138.2149099,True
476,TINSEL BIDCO PTY LTD,Snowtown Wind Farm Stage 2 Pty Ltd,SA,"1,527,040","424,178",Wind,2020-2021,-33.7140884,138.1408256,True
477,TRANSALTA ENERGY (AUSTRALIA) PTY LTD,Kalgoorlie Power Station,WA,"1,007,789","279,941",Gas,2020-2021,-30.749,121.466,False
478,TRANSALTA ENERGY (AUSTRALIA) PTY LTD,Kambalda Power Station,WA,"1,023,214","284,226",Gas,2020-2021,-31.201572,121.662514,False
479,TRANSALTA ENERGY (AUSTRALIA) PTY LTD,Leinster Power Station,WA,"978,763","271,879",Gas,2020-2021,-27.9160091,120.6991137,False
480,TRANSALTA ENERGY (AUSTRALIA) PTY LTD,Mt Keith Power Station,WA,"1,132,293","314,526",Gas,2020-2021,-27.281731,120.501701,False
481,TRANSALTA ENERGY (AUSTRALIA) PTY LTD,South Hedland Power Station,WA,"1,519,579","422,105",Gas,2020-2021,-20.4072579,118.5965289,False
482,VENA ENERGY SERVICES (AUSTRALIA) PTY LTD,Tailem Bend Solar farm,SA,"621,994","172,776",Solar,2020-2021,-30.0002315,136.2091547,True
483,WATER CORPORATION,Cocos Keeling Islands - Home Island Generation,WA,"9,112","2,531",Diesel,2020-2021,-12.1178984,96.8967258,False
484,WATER CORPORATION,Cocos Keeling Islands - West Island Generation,WA,"9,282","2,578",Diesel,2020-2021,-12.1450486,96.82170169999999,False
485,WEL 1 PTY LTD,Clermont Solar Farm,QLD,"639,105","177,529",Solar,2020-2021,-22.8394061,147.5810454,True
486,WEL 1 PTY LTD,Wemen Solar Farm,VIC,"666,176","185,049",Solar,2020-2021,-34.8025762,142.5444133,True
487,WHITE ROCK SOLAR FARM (HOLDING) PTY LTD,White Rock Solar Farm Pty Ltd,NSW,"135,137","37,538",Solar,2020-2021,-29.7632925,151.5524023,True
488,WILD CATTLE HILL PTY LTD,Wild Cattle Hill Wind Farm,TAS,"1,562,847","434,124",Wind,2020-2021,-42.0409059,146.8087322,True
489,YARA AUSTRALIA PTY LTD,YPF UTILITIES PRODUCTION AND SUPPLY,WA,"115,658","32,127",Gas,2020-2021,-27.6728168,121.6283098,False
490,YATPOOL SOLAR FARM HOLDCO PTY LTD,YATPOOL SOLAR FARM,VIC,"180,910","50,253",Solar,2020-2021,-34.3943523,142.1846235,True
